School Name,LONGITUDE,LATITUDE,School Type
FUK TAK EDUCATION SOCIETY PRIMARY SCHOOL,114.22376,22.54953,PRIMARY
FUK TAK EDUCATION SOCIETY PRIMARY SCHOOL,114.22521,22.54785,PRIMARY
SHA TAU KOK CENTRAL PRIMARY SCHOOL,114.2234,22.54658,PRIMARY
TA KU LING LING YING PUBLIC SCHOOL,114.14202,22.53728,PRIMARY
FUNG KAI INNOVATIVE SCHOOL,114.12815,22.51091,PRIMARY
FUNG KAI NO.1 PRIMARY SCHOOL,114.12761,22.51069,PRIMARY
LEE CHI TAT MEMORIAL SCHOOL,114.13111,22.50715,PRIMARY
SHEK WU HUI PUBLIC SCHOOL,114.13246,22.50436,PRIMARY
WAI CHOW PUBLIC SCHOOL (SHEUNG SHUI),114.135,22.50343,PRIMARY
TUNG KOON SCHOOL,114.13102,22.50282,PRIMARY
YUK YIN SCHOOL,114.13151,22.50272,PRIMARY
THE SALVATION ARMY SHEK WU SCHOOL (PRIMARY SECTION),114.13308,22.50265,PRIMARY
KAM TSIN VILLAGE HO TUNG SCHOOL,114.11148,22.50184,PRIMARY
"ALLIANCE PRIMARY SCHOOL, SHEUNG SHUI",114.14267,22.50095,PRIMARY
TUNG WAH GROUP OF HOSPITALS HONG KONG & KOWLOON ELECTRICAL APPLIANCES MERCHANTS ASSOCIATION LTD. SCHOOL,114.1323,22.5002,PRIMARY
HHCKLA BUDDHIST CHAN SHI WAN PRIMARY SCHOOL,114.1282,22.49925,PRIMARY
TUNG WAH GROUP OF HOSPITALS MA KAM CHAN MEMORIAL PRIMARY SCHOOL,114.13002,22.49883,PRIMARY
TUN YU SCHOOL,114.07711,22.49838,PRIMARY
PUI LING SCHOOL OF THE PRECIOUS BLOOD,114.14403,22.49748,PRIMARY
HONG KONG RED CROSS HOSPITAL SCHOOLS (PRIMARY SECTION),114.12456,22.49683,PRIMARY
FANLING PUBLIC SCHOOL,114.13753,22.49661,PRIMARY
S.K.H. WING CHUN PRIMARY SCHOOL,114.13126,22.49659,PRIMARY
PENTECOSTAL GIN MAO SHENG PRIMARY SCHOOL,114.13846,22.49632,PRIMARY
TUNG WAH GROUP OF HOSPITALS MA KAM CHAN MEMORIAL PRIMARY SCHOOL,114.12404,22.4943,PRIMARY
TSANG MUI MILLENNIUM SCHOOL,114.12523,22.49373,PRIMARY
HHCKLA BUDDHIST WISDOM PRIMARY SCHOOL,114.12411,22.49372,PRIMARY
S.K.H. KA FUK WING CHUN PRIMARY SCHOOL,114.13495,22.49338,PRIMARY
FANLING GOVERNMENT PRIMARY SCHOOL,114.14303,22.49331,PRIMARY
HHCKLA BUDDHIST PO KWONG SCHOOL (PRIMARY SECTION),114.13941,22.48825,PRIMARY
HHCKLA BUDDHIST CHING KOK LIN ASSOCIATION SCHOOL,114.14206,22.48719,PRIMARY
FANLING ASSEMBLY OF GOD CHURCH PRIMARY SCHOOL,114.14224,22.48441,PRIMARY
FUNG KAI LIU YUN-SUM MEMORIAL SCHOOL,114.14,22.48391,PRIMARY
FONG SHU FOOK TONG FOUNDATION FONG SHU CHUEN PRIMARY SCHOOL,114.14116,22.48269,PRIMARY
"HONG CHI MORNINGLIGHT SCHOOL, YUEN LONG (PRIMARY SECTION)",114.04822,22.4824,PRIMARY
PENTECOSTAL YU LEUNG FAT PRIMARY SCHOOL,114.13865,22.48179,PRIMARY
HONG KONG AND MACAU LUTHERAN CHURCH WONG CHAN SOOK YING MEMORIAL SCHOOL,114.04954,22.47256,PRIMARY
SHUN TAK FRATERNAL ASSOCIATION WU MIEN TUEN PRIMARY SCHOOL,114.00069,22.47112,PRIMARY
THE EDUCATION UNIVERSITY OF HONG KONG JOCKEY CLUB PRIMARY SCHOOL,114.19449,22.46966,PRIMARY
YUEN LONG PUBLIC MIDDLE SCHOOL ALUMNI ASSOCIATION TANG YING YIP PRIMARY SCHOOL,114.00163,22.46819,PRIMARY
S.K.H. TIN SHUI WAI LING OI PRIMARY SCHOOL,114.00107,22.46787,PRIMARY
CHRISTIAN ALLIANCE S Y YEH MEMORIAL PRIMARY SCHOOL,113.99807,22.46768,PRIMARY
W F JOSEPH LEE PRIMARY SCHOOL,113.99614,22.46526,PRIMARY
HONG KONG STUDENT AID SOCIETY PRIMARY SCHOOL,114.00507,22.46513,PRIMARY
INTERNATIONAL COLLEGE HONG KONG HONG LOK YUEN (PRIMARY SECTION),114.15372,22.46409,PRIMARY
XIANGGANG PUTONGHUA YANXISHE PRIMARY SCHOOL OF SCIENCE AND CREATIVITY,113.99851,22.46404,PRIMARY
CHINESE Y.M.C.A. PRIMARY SCHOOL,114.00057,22.46391,PRIMARY
CUMBERLAND PRESBYTERIAN CHURCH YAO DAO PRIMARY SCHOOL,114.0,22.46355,PRIMARY
LOK SIN TONG LEUNG KAU KUI PRIMARY SCHOOL (BRANCH),113.99615,22.46354,PRIMARY
CHIU YANG POR YEN PRIMARY SCHOOL,114.00623,22.46335,PRIMARY
HONG CHI PINEHILL NO.3 SCHOOL (PRIMARY SECTION),114.17278,22.46332,PRIMARY
HONG CHI PINEHILL SCHOOL (PRIMARY SECTION),114.17291,22.46288,PRIMARY
HONG CHI PINEHILL NO.2 SCHOOL (PRIMARY SECTION),114.17217,22.46271,PRIMARY
SPANISH PRIMARY SCHOOL,114.20653,22.46191,PRIMARY
HKFYG LEE SHAU KEE PRIMARY SCHOOL,114.00129,22.46134,PRIMARY
SHAP PAT HEUNG RURAL COMMITTEE KUNG YIK SHE PRIMARY SCHOOL,114.00282,22.46063,PRIMARY
GIGAMIND ENGLISH PRIMARY SCHOOL,114.00526,22.46055,PRIMARY
TUNG WAH GROUP OF HOSPITALS LEO TUNG-HAI LEE PRIMARY SCHOOL,113.995,22.46017,PRIMARY
TIN SHUI WAI METHODIST PRIMARY SCHOOL,113.99828,22.45966,PRIMARY
S.K.H. YUEN CHEN MAUN CHEN JUBILEE PRIMARY SCHOOL,114.17236,22.45945,PRIMARY
CARITAS LOK KAN SCHOOL (PRIMARY SECTION),113.99493,22.45937,PRIMARY
TIN SHUI WAI GOVERNMENT PRIMARY SCHOOL,113.99871,22.45862,PRIMARY
HONG KONG RED CROSS HOSPITAL SCHOOLS (PRIMARY SECTION),114.17491,22.45813,PRIMARY
TIN SHUI WAI CATHOLIC PRIMARY SCHOOL,114.00602,22.45781,PRIMARY
TUNG WAH GROUP OF HOSPITALS YIU DAK CHI MEMORIAL PRIMARY SCHOOL (YUEN LONG),113.99669,22.4576,PRIMARY
SACRED HEART OF MARY CATHOLIC PRIMARY SCHOOL,114.17176,22.45717,PRIMARY
SAHK JOCKEY CLUB ELAINE FIELD SCHOOL (PRIMARY SECTION),114.17288,22.45699,PRIMARY
HONG KONG TAOIST ASSOCIATION WUN TSUEN NG LAI WO MEMORIAL SCHOOL,114.16849,22.45661,PRIMARY
TAI PO METHODIST SCHOOL,114.17519,22.45659,PRIMARY
NEW TERRITORIES WOMEN & JUVENILES WELFARE ASSOCIATION CHRISTIAN REMEMBRANCE OF GRACE PRIMARY SCHOOL,114.1714,22.45534,PRIMARY
NEW TERRITORIES WOMEN & JUVENILES WELFARE ASSOCIATION LTD. LEUNG SING TAK PRIMARY SCHOOL,114.16693,22.45455,PRIMARY
ZENITH PRIMARY SCHOOL & KINDERGARTEN,114.00219,22.45446,PRIMARY
BUDDHIST TO CHI FAT SHE YEUNG YAT LAM MEMORIAL SCHOOL (PRIMARY SECTION),114.00678,22.45433,PRIMARY
HO MING PRIMARY SCHOOL (SPONSORED BY SIK SIK YUEN),114.00631,22.45414,PRIMARY
HONG KONG AND KOWLOON KAIFONG WOMEN'S ASSOCIATION SUN FONG CHUNG PRIMARY SCHOOL,114.17747,22.45386,PRIMARY
LOK SIN TONG LEUNG KAU KUI PRIMARY SCHOOL,113.9989,22.45382,PRIMARY
THE CHURCH OF CHRIST IN CHINA FONG YUN WAH PRIMARY SCHOOL,114.00527,22.45336,PRIMARY
TAI PO GOVERNMENT PRIMARY SCHOOL,114.16007,22.45286,PRIMARY
SAM SHUI NATIVES ASSOCIATION HUEN KING WING SCHOOL,114.1762,22.45227,PRIMARY
TAI PO OLD MARKET PUBLIC SCHOOL,114.16695,22.45176,PRIMARY
CHIU YANG PRIMARY SCHOOL OF HONG KONG,114.00478,22.45171,PRIMARY
YUEN LONG LONG PING ESTATE TUNG KOON PRIMARY SCHOOL,114.0236,22.45165,PRIMARY
LAM TSUEN PUBLIC WONG FOOK LUEN MEMORIAL SCHOOL,114.1634,22.45057,PRIMARY
YUEN LONG LONG PING ESTATE WAI CHOW SCHOOL,114.0251,22.44971,PRIMARY
UMAH INTERNATIONAL PRIMARY SCHOOL,114.01868,22.44956,PRIMARY
THE ASSOCIATION OF THE DIRECTORS AND FORMER DIRECTORS OF POK OI HOSPITAL LTD. LEUNG SING TAK SCHOOL,114.02478,22.44896,PRIMARY
SUNG TAK WONG KIN SHEUNG MEMORIAL SCHOOL,114.16937,22.44892,PRIMARY
QUEEN ELIZABETH SCHOOL OLD STUDENTS' ASSOCIATION PRIMARY SCHOOL,114.00443,22.44891,PRIMARY
TAI PO OLD MARKET PUBLIC SCHOOL (PLOVER COVE),114.17037,22.44878,PRIMARY
CHUNG SING SCHOOL,114.03324,22.44858,PRIMARY
NORWEGIAN INTERNATIONAL SCHOOL,114.1704,22.44787,PRIMARY
QUEEN ELIZABETH SCHOOL OLD STUDENTS' ASSOCIATION BRANCH PRIMARY SCHOOL,114.00271,22.44742,PRIMARY
S.K.H. YUEN CHEN MAUN CHEN PRIMARY SCHOOL,114.17314,22.44736,PRIMARY
TAI PO BAPTIST PUBLIC SCHOOL,114.1756,22.44722,PRIMARY
LIONS CLUBS INTERNATIONAL HO TAK SUM PRIMARY SCHOOL,114.00116,22.44706,PRIMARY
S.K.H. LING OI PRIMARY SCHOOL,114.02153,22.44591,PRIMARY
ST. HILARY'S PRIMARY SCHOOL,114.16767,22.4459,PRIMARY
ELCHK LUTHERAN SCHOOL,114.02406,22.44549,PRIMARY
KWONG MING SCHOOL,114.02005,22.44468,PRIMARY
YUEN LONG MERCHANTS ASSOCIATION PRIMARY SCHOOL,114.0237,22.44413,PRIMARY
THE CHURCH OF CHRIST IN CHINA CHUN KWONG PRIMARY SCHOOL,114.02637,22.444,PRIMARY
YUEN LONG GOVERNMENT PRIMARY SCHOOL,114.0438,22.44267,PRIMARY
KWONG MING YING LOI SCHOOL,114.03844,22.44265,PRIMARY
AMERICAN SCHOOL HONG KONG,114.16468,22.44253,PRIMARY
PO LEUNG KUK TIN KA PING PRIMARY SCHOOL,114.16696,22.44147,PRIMARY
YAN CHAI HOSPITAL CHOI HIN TO PRIMARY SCHOOL,114.16643,22.44146,PRIMARY
CHRISTIAN & MISSIONARY ALLIANCE CHUI CHAK LAM MEMORIAL SCHOOL,114.03184,22.44128,PRIMARY
TUNG TAK SCHOOL,114.06602,22.44115,PRIMARY
BUDDHIST WING YAN SCHOOL,114.03372,22.44108,PRIMARY
"HONG CHI MORNINGJOY SCHOOL, YUEN LONG (PRIMARY SECTION)",114.0228,22.44075,PRIMARY
YUEN LONG PUBLIC MIDDLE SCHOOL ALUMNI ASSOCIATION PRIMARY SCHOOL,114.02056,22.4407,PRIMARY
PO LEUNG KUK LAW'S FOUNDATION SCHOOL (PRIMARY SECTION),114.01785,22.44063,PRIMARY
KAM TIN MUNG YEUNG PUBLIC SCHOOL,114.06103,22.44032,PRIMARY
S.K.H. ST. JOSEPH'S PRIMARY SCHOOL,114.06715,22.43876,PRIMARY
SOUTH YUEN LONG GOVERNMENT PRIMARY SCHOOL,114.01968,22.43845,PRIMARY
BUDDHIST CHAN WING KAN MEMORIAL SCHOOL,114.01984,22.43778,PRIMARY
ELCHK LUTHERAN ACADEMY,114.01978,22.43703,PRIMARY
MALVERN COLLEGE HONG KONG,114.20164,22.43334,PRIMARY
PAT HEUNG CENTRAL PRIMARY SCHOOL,114.08674,22.4316,PRIMARY
JAPANESE INTERNATIONAL SCHOOL,114.19539,22.43082,PRIMARY
PO LEUNG KUK TIN KA PING MILLENNIUM PRIMARY SCHOOL,114.19603,22.43075,PRIMARY
YUEN LONG PO KOK PRIMARY SCHOOL,113.99899,22.43011,PRIMARY
HONG KONG TAOIST ASSOCIATION SHUN YEUNG PRIMARY SCHOOL,114.22825,22.42611,PRIMARY
PO LEUNG KUK RIVERAIN PRIMARY SCHOOL,114.22782,22.42589,PRIMARY
MA ON SHAN LING LIANG PRIMARY SCHOOL,114.24079,22.42469,PRIMARY
NG CLAN'S ASSOCIATION TAI PAK MEMORIAL SCHOOL,114.23494,22.42127,PRIMARY
"CHRISTIAN ALLIANCE TOI SHAN H. C. CHAN PRIMARY SCHOOL OF THE KOWLOON TONG CHURCH OF THE CHINESE CHRISTIAN AND MISSIONARY ALLIANCE, HONG KONG",114.22591,22.42046,PRIMARY
PO LEUNG KUK CHONG KEE TING PRIMARY SCHOOL,114.23171,22.41968,PRIMARY
RENAISSANCE COLLEGE,114.22514,22.41813,PRIMARY
MA ON SHAN METHODIST PRIMARY SCHOOL,114.22484,22.41752,PRIMARY
MA ON SHAN ST. JOSEPH'S PRIMARY SCHOOL,114.23059,22.41703,PRIMARY
THE EVANGELICAL LUTHERAN CHURCH OF HONG KONG MA ON SHAN LUTHERAN PRIMARY SCHOOL,114.22834,22.41521,PRIMARY
PO LEUNG KUK HORIZON EAST PRIMARY SCHOOL,113.96652,22.41128,PRIMARY
HING TAK SCHOOL,113.98164,22.41109,PRIMARY
HONG KONG RED CROSS HOSPITAL SCHOOLS (PRIMARY SECTION),113.97374,22.41001,PRIMARY
TUEN MUN GOVERNMENT PRIMARY SCHOOL,113.97733,22.40956,PRIMARY
S.K.H. MA ON SHAN HOLY SPIRIT PRIMARY SCHOOL,114.22031,22.40708,PRIMARY
HONG KONG RED CROSS HOSPITAL SCHOOLS (PRIMARY SECTION),113.97621,22.40708,PRIMARY
PO LEUNG KUK FONG WONG KAM CHUEN PRIMARY SCHOOL,113.96223,22.4068,PRIMARY
"HONG CHI MORNINGHOPE SCHOOL, TUEN MUN (PRIMARY SECTION)",113.97206,22.40673,PRIMARY
THE HONG KONG ENG CLANSMAN ASSOCIATION WU SI CHONG MEMORIAL SCHOOL,113.97033,22.40646,PRIMARY
THE CHURCH OF CHRIST IN CHINA MONG WONG FAR YOK MEMORIAL PRIMARY SCHOOL,113.96627,22.40624,PRIMARY
SIR ROBERT BLACK COLLEGE OF EDUCATION PAST STUDENTS' ASSOCIATION HO SAU KI SCHOOL,113.96659,22.40563,PRIMARY
KOWLOON CITY BAPTIST CHURCH HAY NIEN PRIMARY SCHOOL,114.22239,22.40535,PRIMARY
PO LEUNG KUK VICWOOD K.T. CHONG NO.2 PRIMARY SCHOOL,113.96943,22.40461,PRIMARY
S.K.H. MUNG YAN PRIMARY SCHOOL,113.98006,22.40437,PRIMARY
HONG KONG RED SWASTIKA SOCIETY TUEN MUN PRIMARY SCHOOL,113.96144,22.40404,PRIMARY
TUNG WAN MOK LAW SHUI WAH SCHOOL (PRIMARY SECTION),113.96685,22.40269,PRIMARY
TOI SHAN ASSOCIATION PRIMARY SCHOOL,113.97189,22.40158,PRIMARY
STEWARDS POOI KEI PRIMARY SCHOOL,114.19794,22.40018,PRIMARY
TAOIST CHING CHUNG PRIMARY SCHOOL,113.96684,22.39743,PRIMARY
THE CHURCH OF CHRIST IN CHINA BUT SAN PRIMARY SCHOOL,113.97784,22.39719,PRIMARY
LOK SIN TONG LEUNG WONG WAI FONG MEMORIAL SCHOOL,113.96357,22.39627,PRIMARY
R.T.C. GAIA SCHOOL,113.97943,22.39594,PRIMARY
CASTLE PEAK CATHOLIC PRIMARY SCHOOL,113.97507,22.39483,PRIMARY
SHATIN JUNIOR SCHOOL,114.18844,22.39344,PRIMARY
PO LEUNG KUK SIU HON-SUM PRIMARY SCHOOL,114.19491,22.39334,PRIMARY
CARITAS RESURRECTION SCHOOL (PRIMARY SECTION),114.19097,22.39296,PRIMARY
FOREST HOUSE WALDORF SCHOOL,114.29456,22.39236,PRIMARY
LEUNG KUI KAU LUTHERAN PRIMARY SCHOOL,114.20581,22.39221,PRIMARY
THE ASSOCIATION OF DIRECTORS & FORMER DIRECTORS OF POK OI HOSPITAL LTD MRS CHENG YAM ON SCHOOL,113.9788,22.39189,PRIMARY
THE EVANGELICAL LUTHERAN CHURCH OF HONG KONG WO CHE LUTHERAN SCHOOL,114.19728,22.38962,PRIMARY
YAN OI TONG MADAM LAU WONG FAT PRIMARY SCHOOL,113.97726,22.38959,PRIMARY
SHUN TAK FRATERNAL ASSOCIATION HO YAT TUNG PRIMARY SCHOOL,113.97403,22.38957,PRIMARY
ISLAMIC PRIMARY SCHOOL,113.97228,22.3887,PRIMARY
TUNG WAH GROUP OF HOSPITALS TANG SHIU KIN PRIMARY SCHOOL,113.97721,22.38834,PRIMARY
SAHK KO FOOK IU MEMORIAL SCHOOL (PRIMARY SECTION),114.19372,22.38816,PRIMARY
HONG KONG BAPTIST UNIVERSITY AFFILIATED SCHOOL WONG KAM FAI SECONDARY AND PRIMARY SCHOOL,114.20996,22.38795,PRIMARY
BAPTIST LUI MING CHOI PRIMARY SCHOOL,114.2023,22.3879,PRIMARY
"HONG CHI MORNINGHILL SCHOOL, TUEN MUN (PRIMARY SECTION)",113.96513,22.38686,PRIMARY
"HONG CHI MORNINGLIGHT SCHOOL, TUEN MUN (PRIMARY SECTION)",113.96537,22.3868,PRIMARY
PO LEUNG KUK HONG KONG TAOIST ASSOCIATION YUEN YUEN PRIMARY SCHOOL,113.98028,22.38671,PRIMARY
INTERNATIONAL CHRISTIAN SCHOOL,114.21023,22.38661,PRIMARY
THE CHURCH OF CHRIST IN CHINA HOH FUK TONG PRIMARY SCHOOL,113.96719,22.38652,PRIMARY
SHUN TAK FRATERNAL ASSOCIATION WU SIU KUI MEMORIAL PRIMARY SCHOOL,113.97705,22.38641,PRIMARY
LUI CHEUNG KWONG LUTHERAN PRIMARY SCHOOL,113.9776,22.38641,PRIMARY
THE LITTLE FLOWER'S CATHOLIC PRIMARY SCHOOL,114.19379,22.38585,PRIMARY
S.K.H. HOLY SPIRIT PRIMARY SCHOOL,114.19171,22.38581,PRIMARY
SHATIN TSUNG TSIN SCHOOL,114.19073,22.38559,PRIMARY
HONG KONG ACADEMY,114.27469,22.38522,PRIMARY
YAN CHAI HOSPITAL HO SIK NAM PRIMARY SCHOOL,113.97162,22.38503,PRIMARY
DR. CATHERINE F. WOO MEMORIAL SCHOOL,114.20362,22.38475,PRIMARY
SAI KUNG CENTRAL LEE SIU YAM MEMORIAL SCHOOL,114.27638,22.38448,PRIMARY
SAI KUNG SUNG TSUN CATHOLIC SCHOOL (PRIMARY SECTION),114.27042,22.38283,PRIMARY
LUNG KONG WORLD FEDERATION SCHOOL LTD. WONG YIU NAM PRIMARY SCHOOL,114.21484,22.3824,PRIMARY
CHI HONG PRIMARY SCHOOL,114.1971,22.38222,PRIMARY
HONG KONG CHRISTIAN SERVICE PUI OI SCHOOL (PRIMARY SECTION),113.97377,22.38196,PRIMARY
BAPTIST (SHA TIN WAI) LUI MING CHOI PRIMARY SCHOOL,114.19795,22.3814,PRIMARY
SHA TIN METHODIST PRIMARY SCHOOL,114.21464,22.38018,PRIMARY
HONG KONG RED CROSS HOSPITAL SCHOOLS (PRIMARY SECTION),114.20129,22.37994,PRIMARY
HO SHUN PRIMARY SCHOOL (SPONSORED BY THE SIK SIK YUEN),114.13419,22.37976,PRIMARY
FREE METHODIST MEI LAM PRIMARY SCHOOL,114.17409,22.37965,PRIMARY
S.K.H. CHU OI PRIMARY SCHOOL (LEI MUK SHUE),114.13398,22.37936,PRIMARY
THE CHURCH OF CHRIST IN CHINA KEI WAI PRIMARY SCHOOL,114.10463,22.37918,PRIMARY
TWGHS SHUI CHUEN O PRIMARY SCHOOL,114.17779,22.37848,PRIMARY
CHAI WAN KOK CATHOLIC PRIMARY SCHOOL,114.10647,22.37816,PRIMARY
FIVE DISTRICTS BUSINESS WELFARE ASSOCIATION CHOW CHIN YAU SCHOOL,113.96286,22.37791,PRIMARY
LEI MUK SHUE CATHOLIC PRIMARY SCHOOL,114.13389,22.37786,PRIMARY
HARROW INTERNATIONAL SCHOOL HONG KONG,113.99138,22.37683,PRIMARY
PO LEUNG KUK LEUNG CHOW SHUN KAM PRIMARY SCHOOL,113.96412,22.37675,PRIMARY
YAN TAK CATHOLIC PRIMARY SCHOOL,113.96373,22.37622,PRIMARY
PO LEUNG KUK CHEE JING YIN PRIMARY SCHOOL,114.19597,22.37609,PRIMARY
CARITAS LOK JUN SCHOOL (PRIMARY SECTION),114.18273,22.37566,PRIMARY
SHA TIN WAI DR. CATHERINE F. WOO MEMORIAL SCHOOL,114.19112,22.37555,PRIMARY
LUTHERAN TSANG SHING SIU LEUN SCHOOL,113.96145,22.37549,PRIMARY
TUNG WAH GROUP OF HOSPITALS SIN CHU WAN PRIMARY SCHOOL,114.17962,22.37548,PRIMARY
TSUEN WAN PUBLIC HO CHUEN YIU MEMORIAL PRIMARY SCHOOL,114.12559,22.3754,PRIMARY
THE SALVATION ARMY TIN KA PING SCHOOL,114.19241,22.37517,PRIMARY
SHATIN PUBLIC SCHOOL (PRIMARY SECTION),114.17679,22.37515,PRIMARY
YAN CHAI HOSPITAL LAW CHAN CHOR SI PRIMARY SCHOOL,113.96644,22.37486,PRIMARY
HONG KONG TAOIST ASSOCIATION THE YUEN YUEN INSTITUTE SHEK WAI KOK PRIMARY SCHOOL,114.1222,22.37461,PRIMARY
TAOIST CHING CHUNG PRIMARY SCHOOL (WU KING ESTATE),113.96525,22.37449,PRIMARY
PUI KIU COLLEGE,114.17334,22.37441,PRIMARY
KWAI-MING WU MEMORIAL SCHOOL OF THE PRECIOUS BLOOD,114.11905,22.37429,PRIMARY
SHUN TAK FRATERNAL ASSOCIATION LEE KAM PRIMARY SCHOOL,113.99601,22.3742,PRIMARY
PO LEUNG KUK WOMEN'S WELFARE CLUB WESTERN DISTRICT FUNG LEE PUI YIU PRIMARY SCHOOL,113.99531,22.37395,PRIMARY
HOLY CROSS LUTHERAN SCHOOL,114.1148,22.37318,PRIMARY
LUNG KONG WORLD FEDERATION SCHOOL LIMITED LAU TAK YUNG MEMORIAL PRIMARY SCHOOL,113.96853,22.37302,PRIMARY
TSUEN WAN CHIU CHOW PUBLIC SCHOOL,114.11447,22.37242,PRIMARY
SALESIAN YIP HON PRIMARY SCHOOL,114.14145,22.37237,PRIMARY
HOI PA STREET GOVERNMENT PRIMARY SCH,114.11508,22.37204,PRIMARY
AD&FD OF POK OI HOSPITAL MRS CHENG YAM ON MILLENNIUM SCHOOL,114.00401,22.37195,PRIMARY
TSUEN WAN GOVERNMENT PRIMARY SCHOOL,114.10101,22.3719,PRIMARY
"CHRISTIAN ALLIANCE H.C. CHAN PRIMARY SCHOOL OF THE KOWLOON TONG CHURCH OF THE CHINESE CHRISTIAN AND MISSIONARY ALLIANCE, HONG KONG",114.1872,22.37171,PRIMARY
GENERAL CHAMBER OF COMMERCE & INDUSTRY OF THE TUNG KUN DISTRICT CHEONG WONG WAI PRIMARY SCHOOL,114.18017,22.37168,PRIMARY
S.K.H. CHU OI PRIMARY SCHOOL,114.13966,22.37095,PRIMARY
HONG KONG BAPTIST CONVENTION PRIMARY SCHOOL,114.10031,22.3709,PRIMARY
IMMACULATE HEART OF MARY SCHOOL,114.17597,22.37089,PRIMARY
SI YUAN SCHOOL OF THE PRECIOUS BLOOD,114.12253,22.37057,PRIMARY
FREE METHODIST BRADBURY CHUN LEI PRIMARY SCHOOL,114.18119,22.37055,PRIMARY
THE CHURCH OF CHRIST IN CHINA CHUEN YUEN FIRST PRIMARY SCHOOL,114.11485,22.3703,PRIMARY
S.K.H. YAN LAAP MEMORIAL PRIMARY SCHOOL,114.12816,22.37002,PRIMARY
HONG KONG RED CROSS HOSPITAL SCHOOLS (PRIMARY SECTION),114.11947,22.36994,PRIMARY
BUDDHIST LAM BING YIM MEMORIAL SCHOOL (SPONSORED BY THE HONG KONG BUDDHIST ASSOCIATION),114.12327,22.36958,PRIMARY
SHEK LEI ST. JOHN'S CATHOLIC PRIMARY SCHOOL,114.14055,22.36924,PRIMARY
TSUEN WAN CATHOLIC PRIMARY SCHOOL,114.11914,22.36913,PRIMARY
SHA TIN GOVERNMENT PRIMARY SCHOOL,114.18605,22.36892,PRIMARY
KOWLOON CITY BAPTIST CHURCH HAY NIEN (YAN PING) PRIMARY SCHOOL,114.18208,22.36885,PRIMARY
EMMANUEL PRIMARY SCHOOL,114.05998,22.3683,PRIMARY
MARY OF PROVIDENCE PRIMARY SCHOOL,114.11619,22.36826,PRIMARY
THE CHURCH OF CHRIST IN CHINA CHUEN YUEN SECOND PRIMARY SCHOOL,114.12609,22.36816,PRIMARY
PO LEUNG KUK DR. JIMMY WONG CHI-HO (TIN SUM VALLEY) PRIMARY SCHOOL,114.17779,22.36796,PRIMARY
SHAM TSENG CATHOLIC PRIMARY SCHOOL,114.06047,22.36746,PRIMARY
SHEK LEI CATHOLIC PRIMARY SCHOOL,114.14187,22.36673,PRIMARY
CARMEL ALISON LAM PRIMARY SCHOOL,114.17421,22.36627,PRIMARY
SAHK B M KOTEWALL MEMORIAL SCHOOL (PRIMARY SECTION),114.12918,22.36585,PRIMARY
S.K.H. YAN LAAP PRIMARY SCHOOL,114.13039,22.36556,PRIMARY
ANFIELD SCHOOL,114.17954,22.36489,PRIMARY
SALESIAN YIP HON MILLENNIUM PRIMARY SCHOOL,114.13754,22.36427,PRIMARY
CNEC TA TUNG SCHOOL,114.13206,22.36413,PRIMARY
SHAK CHUNG SHAN MEMORIAL CATHOLIC PRIMARY SCHOOL,114.11321,22.36392,PRIMARY
ROSEBUD PRIMARY SCHOOL,114.11446,22.36369,PRIMARY
ROSEBUD PRIMARY SCHOOL,114.11446,22.36369,PRIMARY
ROSEBUD PRIMARY SCHOOL,114.11446,22.36369,PRIMARY
SIR ROBERT BLACK COLLEGE OF EDUCATION PAST STUDENTS' ASSOCIATION LEE YAT NGOK MEMORIAL SCHOOL,114.12295,22.36347,PRIMARY
CHOI JUN SCHOOL (PRIMARY SECTION),114.1768,22.36343,PRIMARY
THE EVANGELICAL LUTHERAN CHURCH OF HONG KONG KWAI SHING LUTHERAN PRIMARY SCHOOL,114.12642,22.36276,PRIMARY
CNEC LUI MING CHOI PRIMARY SCHOOL,114.1017,22.36251,PRIMARY
TUNG WAH GROUP OF HOSPITALS WONG SEE SUM PRIMARY SCHOOL,114.10185,22.36165,PRIMARY
S.K.H. CHU YAN PRIMARY SCHOOL,114.12104,22.36111,PRIMARY
CUHK FEDERATION OF ALUMNI ASSOCIATION THOMAS CHEUNG SCHOOL,114.17248,22.36079,PRIMARY
DELIA (MAN KIU) ENGLISH PRIMARY SCHOOL,114.10568,22.36061,PRIMARY
SAM SHUI NATIVES ASSOCIATION LAU PUN CHEUNG SCHOOL (PRIMARY SECTION),114.12309,22.36028,PRIMARY
HKSYC&IA CHAN NAM CHONG MEMORIAL SCHOOL (PRIMARY SECTION),114.12616,22.36014,PRIMARY
LUTHERAN SCHOOL FOR THE DEAF (PRIMARY SECTION),114.1253,22.35963,PRIMARY
BUDDHIST LIM KIM TIAN MEMORIAL PRIMARY SCHOOL,114.12897,22.35881,PRIMARY
S.K.H. HO CHAK WAN PRIMARY SCHOOL,114.09747,22.35751,PRIMARY
S.K.H. TSING YI CHU YAN PRIMARY SCHOOL,114.09526,22.3571,PRIMARY
YAN CHAI HOSPITAL CHIU TSANG HOK WAN PRIMARY SCHOOL,114.10272,22.35684,PRIMARY
S.K.H. TSING YI ESTATE HO CHAK WAN PRIMARY SCHOOL,114.10459,22.35562,PRIMARY
PO LEUNG KUK CASTAR PRIMARY SCHOOL,114.1066,22.35494,PRIMARY
TSUEN WAN TRADE ASSOCIATION PRIMARY SCHOOL,114.1027,22.35391,PRIMARY
T.W.G.HS KO HO NING MEMORIAL PRIMARY SCHOOL,114.12976,22.35319,PRIMARY
THE CHURCH OF CHRIST IN CHINA KEI WAI PRIMARY SCHOOL (MA WAN),114.05954,22.35104,PRIMARY
PO LEUNG KUK CHAN YAT PRIMARY SCHOOL,114.09869,22.35056,PRIMARY
THE CHURCH OF CHRIST IN CHINA KEI TSZ PRIMARY SCHOOL,114.19658,22.35013,PRIMARY
TSZ WAN SHAN ST BONAVENTURE CATHOLIC PRIMARY SCHOOL,114.20312,22.34977,PRIMARY
ISLAMIC DHARWOOD PAU MEMORIAL PRIMARY SCHOOL,114.19688,22.34966,PRIMARY
TSING YI TRADE ASSOCIATION PRIMARY SCHOOL,114.10402,22.34929,PRIMARY
TUNG WAH GROUP OF HOSPITALS CHOW YIN SUM PRIMARY SCHOOL,114.1024,22.3488,PRIMARY
PO LEUNG KUK MR. & MRS. CHAN PAK KEUNG TSING YI SCHOOL (PRIMARY SECTION),114.10354,22.34854,PRIMARY
FR. CUCCHIARA MEMORIAL SCHOOL,114.10756,22.34819,PRIMARY
HO LAP PRIMARY SCHOOL (SPONSORED BY SIK SIK YUEN),114.19829,22.34724,PRIMARY
CHO YIU CATHOLIC PRIMARY SCHOOL,114.12929,22.34593,PRIMARY
TSZ WAN SHAN CATHOLIC PRIMARY SCHOOL,114.20433,22.34585,PRIMARY
ASBURY METHODIST PRIMARY SCHOOL,114.12702,22.34578,PRIMARY
INTERNATIONAL CHRISTIAN QUALITY MUSIC SECONDARY AND PRIMARY SCHOOL,114.20546,22.34522,PRIMARY
RHENISH CHURCH GRACE SCHOOL (PRIMARY SECTION),114.20025,22.34514,PRIMARY
OUR LADY'S PRIMARY SCHOOL,114.19596,22.34497,PRIMARY
AOG ST. HILARY'S COLLEGE,114.19883,22.34493,PRIMARY
PO LEUNG KUK GRANDMONT PRIMARY SCHOOL,114.20523,22.34492,PRIMARY
ST. BONAVENTURE CATHOLIC PRIMARY SCHOOL,114.20198,22.34484,PRIMARY
BAPTIST RAINBOW PRIMARY SCHOOL,114.18975,22.34468,PRIMARY
PO LEUNG KUK CHOI KAI YAU SCHOOL,114.1484,22.34457,PRIMARY
ST PATRICK'S CATHOLIC PRIMARY SCHOOL (PO KONG VILLAGE ROAD),114.20444,22.34455,PRIMARY
HONG CHI WINIFRED MARY CHEUNG MORNINGHOPE SCHOOL (PRIMARY SECTION),114.12945,22.34415,PRIMARY
PRICE MEMORIAL CATHOLIC PRIMARY SCHOOL,114.18721,22.34393,PRIMARY
HONG KONG RED CROSS HOSPITAL SCHOOLS (PRIMARY SECTION),114.13381,22.34338,PRIMARY
CARITAS JOCKEY CLUB LOK YAN SCHOOL (PRIMARY SECTION),114.15566,22.34238,PRIMARY
THE CHURCH OF CHRIST IN CHINA KEI CHUN PRIMARY SCHOOL,114.13674,22.34236,PRIMARY
BEACON HILL SCHOOL,114.17806,22.34227,PRIMARY
HONG KONG RED CROSS HOSPITAL SCHOOLS (PRIMARY SECTION),114.13391,22.34157,PRIMARY
HONG KONG RED CROSS HOSPITAL SCHOOLS (PRIMARY SECTION),114.15319,22.34147,PRIMARY
FIVE DISTRICTS BUSINESS WELFARE ASSOCIATION SCHOOL,114.15458,22.34102,PRIMARY
WONG TAI SIN GOVERNMENT PRIMARY SCH,114.19354,22.34096,PRIMARY
WONG TAI SIN CATHOLIC PRIMARY SCHOOL,114.19389,22.34095,PRIMARY
SAN WUI COMMERCIAL SOCIETY YMCA OF HONG KONG CHRISTIAN SCHOOL,114.15928,22.34057,PRIMARY
GOOD COUNSEL CATHOLIC PRIMARY SCHOOL,114.15971,22.34039,PRIMARY
CANOSSA PRIMARY SCHOOL,114.1973,22.34036,PRIMARY
CHUN TOK SCHOOL,114.207,22.34025,PRIMARY
THE MENTAL HEALTH ASSOCIATION OF HONG KONG - CORNWALL SCHOOL (PRIMARY SECTION),114.1674,22.33964,PRIMARY
SOCIETY OF BOYS' CENTRES CHAK YAN CENTRE SCHOOL (PRIMARY SECTION),114.16819,22.33961,PRIMARY
CHRISTIAN ALLIANCE INTERNATIONAL SCHOOL,114.14451,22.33949,PRIMARY
S.K.H. KEI OI PRIMARY SCHOOL,114.16077,22.33947,PRIMARY
YEW CHUNG INTERNATIONAL SCHOOL,114.17615,22.3384,PRIMARY
ST. PATRICK'S SCHOOL,114.18893,22.33837,PRIMARY
LI CHENG UK GOVERNMENT PRIMARY SCHOOL,114.16003,22.33822,PRIMARY
YEW CHUNG INTERNATIONAL SCHOOL,114.1769,22.33816,PRIMARY
PAK TIN CATHOLIC PRIMARY SCHOOL,114.1687,22.33787,PRIMARY
YEW CHUNG INTERNATIONAL SCHOOL,114.17699,22.33763,PRIMARY
CONFUCIAN TAI SHING PRIMARY SCHOOL,114.19402,22.33734,PRIMARY
S.K.H. KEI TAK PRIMARY SCHOOL,114.19446,22.33706,PRIMARY
CANOSSA PRIMARY SCHOOL (SAN PO KONG),114.20203,22.337,PRIMARY
S.K.H. KEI FOOK PRIMARY SCHOOL,114.15421,22.33649,PRIMARY
HOLY FAMILY CANOSSIAN SCHOOL (KOWLOON TONG),114.17861,22.33648,PRIMARY
HONG KONG RED CROSS MARGARET TRENCH SCHOOL (PRIMARY SECTION),114.21291,22.3361,PRIMARY
THE CHURCH OF CHRIST IN CHINA KEI WA PRIMARY SCHOOL,114.20662,22.33604,PRIMARY
KOWLOON TONG GOVERNMENT PRIMARY SCHOOL,114.17848,22.33588,PRIMARY
AUSTRALIAN INTERNATIONAL SCHOOL HONG KONG,114.17793,22.3356,PRIMARY
CARITAS PELLETIER SCHOOL (PRIMARY SECTION),114.21632,22.33558,PRIMARY
TUNG WAH GROUP OF HOSPITALS KWAN FONG KAI CHI SCHOOL (PRIMARY SECTION),114.17161,22.33542,PRIMARY
THE EVANGELICAL LUTHERAN CHURCH OF HONG KONG FAITH LUTHERAN SCHOOL,114.16525,22.33541,PRIMARY
PO LEUNG KUK MRS. CHAN NAM CHONG MEMORIAL PRIMARY SCHOOL,114.19674,22.33516,PRIMARY
BISHOP FORD MEMORIAL SCHOOL,114.19008,22.33514,PRIMARY
DELIA ENGLISH PRIMARY SCHOOL & KINDERGARTEN,114.14079,22.33501,PRIMARY
LINGNAN UNIVERSITY ALUMNI ASSOCIATION (HONG KONG) PRIMARY SCHOOL,114.16522,22.335,PRIMARY
MARY ROSE SCHOOL (PRIMARY SECTION),114.18115,22.33489,PRIMARY
BISHOP WALSH PRIMARY SCHOOL,114.18763,22.33484,PRIMARY
S.K.H. ST. CLEMENT'S PRIMARY SCHOOL,114.15367,22.33483,PRIMARY
SAVIOUR LUTHERAN SCHOOL (PRIMARY SECTION),114.16333,22.33468,PRIMARY
THE CHURCH OF CHRIST IN CHINA HEEP WOH PRIMARY SCHOOL (CHEUNG SHA WAN),114.15797,22.33462,PRIMARY
KOWLOON TONG BISHOP WALSH CATHOLIC SCHOOL,114.18624,22.3345,PRIMARY
SOCIETY OF BOYS' CENTRES - HUI CHUNG SING MEMORIAL SCHOOL (PRIMARY SECTION),114.15903,22.33443,PRIMARY
S.K.H. ST. THOMAS' PRIMARY SCHOOL,114.15837,22.33441,PRIMARY
HOI PING CHAMBER OF COMMERCE PRIMARY SCHOOL,114.15346,22.33435,PRIMARY
CHOI WAN ST JOSEPH'S PRIMARY SCHOOL,114.21229,22.33427,PRIMARY
GOOD HOPE PRIMARY SCHOOL CUM KINDERGARTEN,114.21873,22.3342,PRIMARY
PING SHEK ESTATE CATHOLIC PRIMARY SCHOOL,114.21056,22.33413,PRIMARY
FUK WING STREET GOVERNMENT PRIM SCH,114.15944,22.33406,PRIMARY
CHRISTIAN & MISSIONARY ALLIANCE SUN KEI PRIMARY SCHOOL (PING SHEK),114.21096,22.33402,PRIMARY
ST. JOHANNES COLLEGE,114.17848,22.33382,PRIMARY
"THE CHURCH OF CHRIST IN CHINA, MONGKOK CHURCH KAI OI SCHOOL (PRIMARY SECTION)",114.14532,22.33364,PRIMARY
THE EVANGELICAL LUTHERAN CHURCH OF HONG KONG FAITH LUTHERAN SCHOOL,114.16689,22.33361,PRIMARY
LAICHIKOK CATHOLIC PRIMARY SCHOOL,114.14916,22.3333,PRIMARY
SHAM SHUI PO GOVERNMENT PRIMARY SCHOOL,114.14765,22.33323,PRIMARY
NG WAH CATHOLIC PRIMARY SCHOOL,114.19478,22.33311,PRIMARY
ST. FRANCIS OF ASSISI'S CARITAS SCHOOL,114.16777,22.33289,PRIMARY
THE CHURCH OF CHRIST IN CHINA KEI SHUN SPECIAL SCHOOL (PRIMARY SECTION),114.22355,22.33289,PRIMARY
MUNSANG COLLEGE PRIMARY SCHOOL,114.18614,22.33273,PRIMARY
CLEARWATER BAY SCHOOL,114.26236,22.3326,PRIMARY
CLEARWATER BAY SCHOOL,114.26236,22.3326,PRIMARY
S.K.H. HOLY CROSS PRIMARY SCHOOL,114.20434,22.3324,PRIMARY
AMERICAN INTERNATIONAL SCHOOL (PRIMARY BRANCH),114.17841,22.33219,PRIMARY
PO YAN OBLATE PRIMARY SCHOOL,114.1925,22.33183,PRIMARY
SOCIETY OF BOYS' CENTRES SHING TAK CENTRE SCHOOL (PRIMARY SECTION),114.22149,22.33147,PRIMARY
MARYKNOLL FATHERS' SCHOOL (PRIMARY SECTION),114.1458,22.33143,PRIMARY
PO LEUNG KUK STANLEY HO SAU NAN PRIMARY SCHOOL,114.20442,22.33136,PRIMARY
HOLY FAMILY CANOSSIAN SCHOOL,114.18724,22.33118,PRIMARY
"ALLIANCE PRIMARY SCHOOL, TAI HANG TUNG",114.17014,22.33111,PRIMARY
AMERICAN INTERNATIONAL SCHOOL,114.17831,22.33111,PRIMARY
ST. JOSEPH'S ANGLO-CHINESE PRIMARY SCHOOL,114.21058,22.33098,PRIMARY
THE HONG KONG SZE YAP COMMERCIAL & INDUSTRIAL ASSOCIATION SAN WUI COMMERCIAL SOCIETY SCHOOL,114.17015,22.33079,PRIMARY
S.K.H. ST. ANDREW'S PRIMARY SCHOOL,114.14746,22.33076,PRIMARY
ST. MARGARET'S CO-EDUCATIONAL ENGLISH SECONDARY AND PRIMARY SCHOOL,114.15177,22.33076,PRIMARY
ST. FRANCIS OF ASSISI'S ENGLISH PRIMARY SCHOOL,114.16654,22.33069,PRIMARY
TAK NGA PRIMARY SCHOOL,114.17531,22.33062,PRIMARY
YING WA PRIMARY SCHOOL,114.15258,22.33042,PRIMARY
KOWLOON TRUE LIGHT SCHOOL (PRIMARY SECTION),114.17831,22.33021,PRIMARY
ALLIANCE PRIMARY SCHOOL KOWLOON TONG,114.17903,22.33017,PRIMARY
KA LING SCHOOL OF THE PRECIOUS BLOOD,114.15666,22.33016,PRIMARY
IU SHAN SCHOOL,114.18673,22.33007,PRIMARY
KOWLOON RHENISH SCHOOL,114.17553,22.32967,PRIMARY
THE CHURCH OF CHRIST IN CHINA KEI WA PRIMARY SCHOOL (KOWLOON TONG),114.18044,22.32966,PRIMARY
CONSERVATIVE BAPTIST LUI MING CHOI PRIMARY SCHOOL,114.2146,22.32943,PRIMARY
DIOCESAN PREPARATORY SCHOOL,114.179,22.3292,PRIMARY
TSUNG TSIN PRIMARY SCHOOL AND KINDERGARTEN,114.16773,22.32908,PRIMARY
CREATIVE PRIMARY SCHOOL,114.18116,22.32895,PRIMARY
S.K.H. KOWLOON BAY KEI LOK PRIMARY SCHOOL,114.20616,22.3289,PRIMARY
BISHOP PASCHANG CATHOLIC SCHOOL,114.20786,22.32868,PRIMARY
JORDAN VALLEY ST. JOSEPH'S CATHOLIC PRIMARY SCHOOL,114.21384,22.32865,PRIMARY
KINGSTON INTERNATIONAL SCHOOL,114.17818,22.32862,PRIMARY
KOWLOON TONG SCHOOL,114.17587,22.32835,PRIMARY
CARMEL LEUNG SING TAK SCHOOL,114.2254,22.32822,PRIMARY
KOWLOON BAY ST. JOHN THE BAPTIST CATHOLIC PRIMARY SCHOOL,114.21173,22.32788,PRIMARY
BUDDHIST CHI KING PRIMARY SCHOOL,114.20715,22.32776,PRIMARY
THE MISSION COVENANT CHURCH HOLM GLAD NO.2 PRIMARY SCHOOL,114.22546,22.3276,PRIMARY
MARYKNOLL CONVENT SCHOOL (PRIMARY SECTION),114.17907,22.32757,PRIMARY
LA SALLE PRIMARY SCHOOL,114.1812,22.32753,PRIMARY
SHAMSHUIPO KAIFONG WELFARE ASSOCIATION PRIMARY SCHOOL,114.16499,22.32744,PRIMARY
KLT FUNFUL ENGLISH PRIMARY SCHOOL,114.17614,22.32719,PRIMARY
CHAN'S CREATIVE SCHOOL,114.17252,22.32717,PRIMARY
THINK INTERNATIONAL SCHOOL,114.17718,22.32716,PRIMARY
LOK SIN TONG LAU TAK PRIMARY SCHOOL,114.25636,22.32673,PRIMARY
PO LEUNG KUK LUK HING TOO PRIMARY SCHOOL,114.25357,22.32647,PRIMARY
ST. ROSE OF LIMA'S SCHOOL,114.17506,22.3263,PRIMARY
HOLY TRINITY PRIMARY SCHOOL,114.18854,22.325,PRIMARY
KELLETT SCHOOL,114.20675,22.32478,PRIMARY
FRESH FISH TRADERS' SCHOOL,114.16406,22.32466,PRIMARY
MA TAU CHUNG GOVERNMENT PRIMARY SCH,114.18681,22.3246,PRIMARY
HONG KONG RED CROSS HOSPITAL SCHOOLS (PRIMARY SECTION),114.18208,22.32446,PRIMARY
POOI TO PRIMARY SCHOOL,114.18639,22.32421,PRIMARY
"EMMANUEL PRIMARY SCHOOL, KOWLOON",114.18795,22.3241,PRIMARY
THE CHURCH OF CHRIST IN CHINA HEEP WOH PRIMARY SCHOOL,114.1721,22.32401,PRIMARY
S.K.H. TSEUNG KWAN O KEI TAK PRIMARY SCHOOL,114.25175,22.32364,PRIMARY
SHUN TAK FRATERNAL ASSOCIATION LEUNG KIT WAH PRIMARY SCHOOL,114.25632,22.32345,PRIMARY
HONG KONG RED CROSS HOSPITAL SCHOOLS (PRIMARY SECTION),114.22699,22.32331,PRIMARY
TONG MEI ROAD GOVERNMENT PRIMARY SCHOOL,114.1657,22.32284,PRIMARY
THE CHURCH OF CHRIST IN CHINA KEI TSUN PRIMARY SCHOOL,114.16216,22.32265,PRIMARY
TSEUNG KWAN O PUI CHI SCHOOL (PRIMARY SECTION),114.25134,22.32238,PRIMARY
S.K.H. KEI WING PRIMARY SCHOOL,114.16795,22.32237,PRIMARY
JOCKEY CLUB SARAH ROE SCHOOL,114.18308,22.32231,PRIMARY
TAI KOK TSUI CATHOLIC PRIMARY SCHOOL (HOI FAN ROAD),114.15583,22.32223,PRIMARY
TAI KOK TSUI CATHOLIC PRIMARY SCHOOL,114.16217,22.3221,PRIMARY
LOK WAH CATHOLIC PRIMARY SCHOOL,114.22171,22.32177,PRIMARY
HEEP YUNN PRIMARY SCHOOL,114.18532,22.32172,PRIMARY
HAVEN OF HOPE SUNNYSIDE SCHOOL (PRIMARY SECTION),114.24441,22.32172,PRIMARY
KOWLOON JUNIOR SCHOOL,114.18182,22.32172,PRIMARY
DIOCESAN BOYS' SCHOOL,114.17321,22.32129,PRIMARY
"HONG CHI MORNINGHILL SCHOOL, TSUI LAM (PRIMARY SECTION)",114.24879,22.32105,PRIMARY
PO LEUNG KUK LAM MAN CHAN ENGLISH PRIMARY SCHOOL,114.18557,22.32089,PRIMARY
HOP YAT CHURCH SCHOOL,114.17945,22.3208,PRIMARY
FARM ROAD GOVERNMENT PRIMARY SCHOOL,114.18667,22.32079,PRIMARY
THE MISSION COVENANT CHURCH HOLM GLAD PRIMARY SCHOOL,114.23195,22.32077,PRIMARY
FIRST ASSEMBLY OF GOD PRIMARY SCHOOL AND KINDERGARTEN,114.17373,22.32062,PRIMARY
HOP YAT CHURCH SCHOOL,114.17936,22.32051,PRIMARY
KING LAM CATHOLIC PRIMARY SCHOOL,114.26025,22.32038,PRIMARY
LOK SIN TONG YEUNG CHUNG MING PRIMARY SCHOOL,114.22324,22.32029,PRIMARY
S.K.H. KEI LOK PRIMARY SCHOOL,114.21997,22.32029,PRIMARY
HHCKLA BUDDHIST WONG CHO SUM SCHOOL,114.26043,22.31999,PRIMARY
S.K.H. ST. JOHN'S TSANG SHIU TIM PRIMARY SCHOOL,114.23687,22.31991,PRIMARY
MAN KIU ASSOCIATION PRIMARY SCHOOL,114.2176,22.31986,PRIMARY
ST. EUGENE DE MAZENOD OBLATE PRIMARY SCHOOL,114.18605,22.31984,PRIMARY
HONG KONG AND MACAU LUTHERAN CHURCH PRIMARY SCHOOL,114.26652,22.31979,PRIMARY
HONG KONG TAOIST ASSOCIATION WUN TSUEN SCHOOL,114.21772,22.31948,PRIMARY
SAU MING PRIMARY SCHOOL,114.23284,22.31948,PRIMARY
TUNG WAH GROUP OF HOSPITALS WONG YEE JAR JAT MEMORIAL PRIMARY SCHOOL,114.25943,22.31932,PRIMARY
STAMFORD AMERICAN SCHOOL HONG KONG,114.17894,22.31917,PRIMARY
SHARON LUTHERAN SCHOOL,114.16506,22.31894,PRIMARY
HONG KONG RED CROSS HOSPITAL SCHOOLS (PRIMARY SECTION),114.26957,22.31881,PRIMARY
PO LEUNG KUK MADAM CHAN WAI CHOW MEMORIAL SCHOOL,114.18794,22.31878,PRIMARY
CHAN SUI KI (LA SALLE) PRIMARY SCHOOL,114.18114,22.31877,PRIMARY
PO LEUNG KUK LAM MAN CHAN ENGLISH PRIMARY SCHOOL,114.1882,22.31867,PRIMARY
DALTON SCHOOL HONG KONG,114.15589,22.31839,PRIMARY
ELCHK HUNG HOM LUTHERAN PRIMARY SCHOOL,114.188,22.31834,PRIMARY
TSEUNG KWAN O GOVERNMENT PRI. SCHOOL,114.2634,22.31823,PRIMARY
S.K.H. GOOD SHEPHERD PRIMARY SCHOOL,114.18788,22.31811,PRIMARY
PUI CHING PRIMARY SCHOOL,114.17592,22.31804,PRIMARY
S.K.H. KEI HIN PRIMARY SCHOOL,114.21732,22.31802,PRIMARY
G.T. (ELLEN YEUNG) COLLEGE,114.17184,22.31777,PRIMARY
SAU MAU PING CATHOLIC PRIMARY SCHOOL,114.23693,22.31761,PRIMARY
VNSAA ST. HILARY'S SCHOOL,114.17232,22.31747,PRIMARY
ST. MATTHEW'S LUTHERAN SCHOOL (SAU MAU PING),114.23352,22.31677,PRIMARY
KWUN TONG GOVERNMENT PRIMARY SCHOOL,114.21811,22.31645,PRIMARY
S.K.H. HOLY CARPENTER PRIMARY SCHOOL,114.19278,22.31631,PRIMARY
OBLATE PRIMARY SCHOOL,114.19182,22.31583,PRIMARY
THE CHURCH OF CHRIST IN CHINA WANCHAI CHURCH KEI TO PRIMARY SCHOOL (KOWLOON CITY),114.18597,22.31551,PRIMARY
YAN CHAI HOSPITAL CHAN IU SENG PRIMARY SCHOOL,114.26757,22.31537,PRIMARY
ST. JOHN THE BAPTIST CATHOLIC PRIMARY SCHOOL,114.22297,22.31533,PRIMARY
HONG KONG RED CROSS HOSPITAL SCHOOLS (PRIMARY SECTION),114.17216,22.31531,PRIMARY
PO LEUNG KUK CAMOES TAN SIU LIN PRIMARY SCHOOL,114.16532,22.31531,PRIMARY
KWUN TONG GOVERNMENT PRIMARY SCHOOL (SAU MING ROAD),114.23397,22.31526,PRIMARY
PO LEUNG KUK FUNG CHING MEMORIAL PRIMARY SCHOOL,114.26361,22.31514,PRIMARY
LING TO CATHOLIC PRIMARY SCHOOL,114.17931,22.31473,PRIMARY
TUNG WAH GROUP OF HOSPITALS LO YU CHIK PRIMARY SCHOOL,114.17122,22.31435,PRIMARY
PO LEUNG KUK ANITA L.L. CHAN (CENTENARY) SCHOOL (PRIMARY SECTION),114.19056,22.31415,PRIMARY
DELIA SCHOOL OF CANADA (KOWLOON EAST),114.227,22.3141,PRIMARY
ASSEMBLY OF GOD LEUNG SING TAK PRIMARY SCHOOL,114.26472,22.31399,PRIMARY
CHI YUN SCHOOL (PRIMARY SECTION),114.19099,22.31359,PRIMARY
YAUMATI CATHOLIC PRIMARY SCHOOL (HOI WANG ROAD),114.16409,22.31341,PRIMARY
POK OI HOSPITAL CHAN KWOK WAI PRIMARY SCHOOL,114.2581,22.31307,PRIMARY
OUR LADY OF CHINA CATHOLIC PRIMARY SCHOOL,114.23043,22.31307,PRIMARY
KOWLOON WOMEN'S WELFARE CLUB LI PING MEMORIAL SCHOOL,114.17551,22.3129,PRIMARY
CHRISTIAN & MISSIONARY ALLIANCE SUN KEI PRIMARY SCHOOL,114.25777,22.31266,PRIMARY
THE CHURCH OF CHRIST IN CHINA KEI FAAT PRIMARY SCHOOL,114.22751,22.31245,PRIMARY
ST. EDWARD'S CATHOLIC PRIMARY SCHOOL,114.23766,22.31178,PRIMARY
YAUMATI CATHOLIC PRIMARY SCHOOL,114.16796,22.31139,PRIMARY
THE CHURCH OF CHRIST IN CHINA WANCHAI CHURCH KEI TO PRIMARY SCHOOL,114.16887,22.31132,PRIMARY
TUNG KOON DISTRICT SOCIETY FONG SHU CHUEN SCHOOL,114.16857,22.31129,PRIMARY
S.K.H. TAK TIN LEE SHIU KEUNG PRIMARY SCHOOL,114.23704,22.31089,PRIMARY
S.K.H. ST. TIMOTHY'S PRIMARY SCHOOL,114.1869,22.31073,PRIMARY
HOLY ANGELS CANOSSIAN SCHOOL,114.18628,22.31061,PRIMARY
CHI LIN BUDDHIST PRIMARY SCHOOL,114.26094,22.31044,PRIMARY
YAUMATI KAIFONG ASSOCIATION SCHOOL,114.17168,22.31022,PRIMARY
YAN OI TONG TIN KA PING PRIMARY SCHOOL,114.26113,22.30996,PRIMARY
PO LEUNG KUK WONG WING SHU PRIMARY SCHOOL,114.2571,22.30938,PRIMARY
HONG KONG RED CROSS HOSPITAL SCHOOLS (PRIMARY SECTION),114.17399,22.30933,PRIMARY
HONG KONG RED CROSS HOSPITAL SCHOOLS (PRIMARY SECTION),114.16915,22.30927,PRIMARY
"NORD ANGLIA INTERNATIONAL SCHOOL, HONG KONG",114.2379,22.30922,PRIMARY
METHODIST SCHOOL,114.17677,22.30854,PRIMARY
TSEUNG KWAN O CATHOLIC PRIMARY SCHOOL,114.25751,22.30843,PRIMARY
DISCOVERY MIND PRIMARY SCHOOL,114.01658,22.3081,PRIMARY
DISCOVERY MONTESSORI ACADEMY,114.01658,22.3081,PRIMARY
AOI PUI SCHOOL,114.18594,22.30795,PRIMARY
HONG KONG AND MACAU LUTHERAN CHURCH MING TAO PRIMARY SCHOOL,114.25357,22.30764,PRIMARY
HONG KONG RED CROSS PRINCESS ALEXANDRA SCHOOL (PRIMARY SECTION),114.23054,22.30743,PRIMARY
HONG KONG ADVENTIST ACADEMY,114.28591,22.30733,PRIMARY
THE HONG KONG CHINESE CHRISTIAN CHURCHES UNION LOGOS ACADEMY,114.25128,22.30727,PRIMARY
LAM TIN METHODIST PRIMARY SCHOOL,114.23699,22.30712,PRIMARY
DIOCESAN GIRLS' JUNIOR SCHOOL,114.17285,22.30705,PRIMARY
S.K.H. LEE SHIU KEUNG PRIMARY SCHOOL,114.23711,22.30684,PRIMARY
JORDAN ROAD GOVERNMENT PRIMARY SCHOOL,114.16888,22.30619,PRIMARY
TSEUNG KWAN O METHODIST PRIMARY SCHOOL,114.26184,22.3053,PRIMARY
G.T. (ELLEN YEUNG) COLLEGE,114.25017,22.3052,PRIMARY
S.K.H. FUNG KEI PRIMARY SCHOOL,114.19139,22.30478,PRIMARY
S.K.H. FUNG KEI MILLENNIUM PRIMARY SCHOOL,114.19126,22.30443,PRIMARY
ST ANDREW'S CATHOLIC PRIMARY SCHOOL,114.24877,22.30428,PRIMARY
EVANGEL COLLEGE,114.26233,22.30411,PRIMARY
DISCOVERY COLLEGE,114.01402,22.30395,PRIMARY
TAK SUN SCHOOL,114.17232,22.30389,PRIMARY
LYC'EE FRANCAIS INTERNATIONAL (FRENCH INTERNATIONAL SCHOOL),114.25765,22.30389,PRIMARY
GRANTHAM COLLEGE OF EDUCATION PAST STUDENTS' ASSOCIATION WHAMPOA PRIMARY SCHOOL,114.19149,22.30331,PRIMARY
"ALLIANCE PRIMARY SCHOOL, WHAMPOA",114.19094,22.3032,PRIMARY
MOUNT KELLY SCHOOL HONG KONG,114.17517,22.30308,PRIMARY
ST. MARY'S CANOSSIAN SCHOOL,114.1756,22.30292,PRIMARY
MA TAU CHUNG GOVERNMENT PRIMARY SCHOOL (HUNG HOM BAY),114.18789,22.30238,PRIMARY
ST. ANTONIUS PRIMARY SCHOOL,114.23686,22.30162,PRIMARY
CANTON ROAD GOVERNMENT PRIMARY SCHOOL,114.16838,22.30128,PRIMARY
DISCOVERY BAY INTERNATIONAL SCHOOL,114.01253,22.30126,PRIMARY
HONG KONG TAOIST ASSOCIATION THE YUEN YUEN INSTITUTE CHAN LUI CHUNG TAK MEMORIAL SCHOOL,114.23981,22.30052,PRIMARY
S.K.H. WEI LUN PRIMARY SCHOOL,114.0123,22.30037,PRIMARY
FUKIEN SECONDARY SCHOOL AFFILIATED SCHOOL,114.23761,22.30019,PRIMARY
S.K.H. YAUTONG KEI HIN PRIMARY SCHOOL,114.23531,22.30005,PRIMARY
THE CHURCH OF CHRIST IN CHINA KEI FAAT PRIMARY SCHOOL (YAU TONG),114.23402,22.29973,PRIMARY
EVANGELIZE CHINA FELLOWSHIP HOLY WORD SCHOOL (PRIMARY SECTION),114.23861,22.29921,PRIMARY
SHREWSBURY INTERNATIONAL SCHOOL HONG KONG,114.27385,22.29785,PRIMARY
HO YU COLLEGE AND PRIMARY SCHOOL (SPONSORED BY SIK SIK YUEN),113.95035,22.29344,PRIMARY
DISCOVERY MIND PRIMARY SCHOOL,113.94267,22.29269,PRIMARY
CHAN'S CREATIVE SCHOOL (HONG KONG ISLAND),114.20264,22.29218,PRIMARY
GRACE CHRISTIAN ACADEMY,114.19985,22.29213,PRIMARY
PO LEUNG KUK YU LEE MO FAN MEMORIAL SCHOOL (PRIMARY SECTION),114.195,22.29182,PRIMARY
"CHINESE METHODIST SCHOOL, TANNER HILL",114.20515,22.29071,PRIMARY
CHINESE METHODIST SCHOOL (NORTH POINT),114.20746,22.2905,PRIMARY
LING LIANG CHURCH SAU TAK PRIMARY SCHOOL,113.94535,22.29028,PRIMARY
PUN U ASSOCIATION WAH YAN PRIMARY SCHOOL,114.20502,22.28991,PRIMARY
NORTH POINT METHODIST PRIMARY SCHOOL,114.20532,22.28954,PRIMARY
KIANGSU & CHEKIANG PRIMARY SCHOOL,114.19817,22.28906,PRIMARY
KIANGSU & CHEKIANG PRIMARY SCHOOL,114.19817,22.28906,PRIMARY
NORTH POINT GOVERNMENT PRIMARY SCHOOL,114.20956,22.28894,PRIMARY
CANOSSA SCHOOL (HONG KONG),114.21127,22.28887,PRIMARY
CHING CHUNG HAU PO WOON PRIMARY SCHOOL,113.94387,22.28844,PRIMARY
PO ON COMMERCIAL ASSOCIATION WAN HO KAN PRIMARY SCHOOL,113.94361,22.28818,PRIMARY
S.K.H. ST. MICHAEL'S PRIMARY SCHOOL,114.19563,22.28794,PRIMARY
KIANGSU & CHEKIANG PRIMARY SCHOOL,114.20076,22.28702,PRIMARY
CARITAS LOK YI SCHOOL (PRIMARY SECTION),114.22224,22.28695,PRIMARY
ST. LOUIS SCHOOL (PRIMARY SECTION),114.13756,22.286,PRIMARY
S.K.H. ST. MATTHEW'S PRIMARY SCHOOL,114.14668,22.2858,PRIMARY
DELIA SCHOOL OF CANADA,114.21827,22.28564,PRIMARY
KOREAN INTERNATIONAL SCHOOL,114.22282,22.28553,PRIMARY
KAU YAN SCHOOL,114.14111,22.28546,PRIMARY
LI SING PRIMARY SCHOOL,114.1397,22.2853,PRIMARY
ST. ANTHONY'S SCHOOL,114.13733,22.28521,PRIMARY
HKCA PO LEUNG KUK SCHOOL,114.19358,22.28455,PRIMARY
BONHAM ROAD GOVERNMENT PRIMARY SCHOOL,114.14391,22.28446,PRIMARY
QUARRY BAY SCHOOL,114.19819,22.28435,PRIMARY
NORTH POINT GOVERNMENT PRIMARY SCHOOL (CLOUD VIEW ROAD),114.19478,22.28429,PRIMARY
S.K.H. ST. PETER'S PRIMARY SCHOOL,114.13565,22.28423,PRIMARY
KING'S COLLEGE OLD BOYS' ASSOCIATION PRIMARY SCHOOL NO. 2,114.14783,22.28417,PRIMARY
CATHOLIC MISSION SCHOOL,114.14712,22.28413,PRIMARY
TAIKOO PRIMARY SCHOOL,114.21485,22.28405,PRIMARY
SAN WUI COMMERCIAL SOCIETY SCHOOL,114.14886,22.28403,PRIMARY
S.K.H. KEI YAN PRIMARY SCHOOL,114.15175,22.284,PRIMARY
CENTRAL & WESTERN DISTRICT ST. ANTHONY'S SCHOOL,114.14769,22.28393,PRIMARY
ST. STEPHEN'S GIRLS' PRIMARY SCHOOL,114.14463,22.28392,PRIMARY
ISLAND CHRISTIAN ACADEMY,114.14927,22.28386,PRIMARY
"CHIU SHEUNG SCHOOL, HONG KONG",114.13596,22.2837,PRIMARY
CHINESE INTERNATIONAL SCHOOL,114.19793,22.28349,PRIMARY
KING'S COLLEGE OLD BOYS' ASSOCIATION PRIMARY SCHOOL,114.15002,22.28348,PRIMARY
ST. CLARE'S PRIMARY SCHOOL,114.14029,22.28346,PRIMARY
TUNG CHUNG CATHOLIC SCHOOL,113.93545,22.28267,PRIMARY
ALDRICH BAY GOVERNMENT PRIMARY SCHOOL,114.22856,22.28238,PRIMARY
HOLY FAMILY SCHOOL,114.03928,22.28195,PRIMARY
SHAUKIWAN TSUNG TSIN SCHOOL,114.23114,22.28182,PRIMARY
SHANGHAI ALUMNI PRIMARY SCHOOL,114.21554,22.28164,PRIMARY
THE SALVATION ARMY LAM BUTT CHUNG MEMORIAL SCHOOL,113.93713,22.28163,PRIMARY
S.K.H. LUI MING CHOI MEMORIAL PRIMARY SCHOOL,114.12415,22.28153,PRIMARY
THE CHURCH OF CHRIST IN CHINA KEI WAN PRIMARY SCHOOL (ALDRICH BAY),114.226,22.28126,PRIMARY
HKFEW WONG CHO BAU SCHOOL,113.93713,22.2811,PRIMARY
SHAU KEI WAN GOVERNMENT PRIMARY SCHOOL,114.23079,22.28096,PRIMARY
BUDDHIST CHUNG WAH KORNHILL PRIMARY SCHOOL,114.21397,22.2809,PRIMARY
ST CHARLES SCHOOL,114.12986,22.28059,PRIMARY
ISLAND WALDORF SCHOOL,114.12903,22.28044,PRIMARY
THE CHURCH OF CHRIST IN CHINA KEI WAN PRIMARY SCHOOL,114.22262,22.28034,PRIMARY
THE HONG KONG CHINESE WOMEN'S CLUB HIOE TJO YOENG PRIMARY SCHOOL,114.22303,22.28031,PRIMARY
SACRED HEART CANOSSIAN SCHOOL,114.15352,22.28023,PRIMARY
SACRED HEART CANOSSIAN SCHOOL,114.15352,22.28023,PRIMARY
"SACRED HEART CANOSSIAN SCHOOL, PRIVATE SECTION",114.15352,22.28023,PRIMARY
ST. PAUL'S CONVENT SCHOOL (PRIMARY SECTION),114.18711,22.27865,PRIMARY
HENNESSY ROAD GOVERNMENT PRIMARY SCHOOL (CAUSEWAY BAY),114.18877,22.27802,PRIMARY
HENNESSY ROAD GOVERNMENT PRIMARY SCH,114.17556,22.2774,PRIMARY
LI SING TAI HANG SCHOOL,114.19392,22.27724,PRIMARY
SIR ELLIS KADOORIE (SOOKUNPO) PRIMARY SCHOOL,114.18967,22.27679,PRIMARY
GLENEALY SCHOOL,114.15298,22.27669,PRIMARY
THE ENDEAVOURERS LEUNG LEE SAU YU MEMORIAL PRIMARY SCHOOL,114.22695,22.27656,PRIMARY
THE SALVATION ARMY ANN WYLLIE MEMORIAL SCHOOL,114.23834,22.27615,PRIMARY
THE JOCKEY CLUB HONG CHI SCHOOL (PRIMARY SECTION),114.17694,22.27609,PRIMARY
BUDDHIST WONG CHEUK UM PRIMARY SCHOOL,114.19014,22.27589,PRIMARY
THE TRUE LIGHT MIDDLE SCHOOL OF HONG KONG,114.19413,22.27584,PRIMARY
SALESIAN SCHOOL,114.22964,22.27571,PRIMARY
TUNG WAH GROUP OF HOSPITALS LI CHI HO PRIMARY SCHOOL,114.17705,22.27548,PRIMARY
ST. JOSEPH'S PRIMARY SCHOOL,114.17653,22.27547,PRIMARY
ST. FRANCIS' CANOSSIAN SCHOOL,114.16897,22.27541,PRIMARY
PO LEUNG KUK GOLD & SILVER EXCHANGE SOCIETY PERSHING TSANG SCHOOL,114.18514,22.27524,PRIMARY
ST. MARK'S PRIMARY SCHOOL,114.23166,22.27478,PRIMARY
CHINESE ACADEMY,114.18747,22.27445,PRIMARY
CARMEL SCHOOL,114.16336,22.27426,PRIMARY
RAIMONDI COLLEGE PRIMARY SECTION,114.17629,22.27329,PRIMARY
S.K.H. ST. JAMES' PRIMARY SCHOOL,114.17378,22.27231,PRIMARY
HONG KONG RED CROSS HOSPITAL SCHOOLS (PRIMARY SECTION),114.12321,22.27129,PRIMARY
HONG KONG RED CROSS JOHN F. KENNEDY CENTRE (PRIMARY SECTION),114.12439,22.27103,PRIMARY
HONG KONG RED CROSS HOSPITAL SCHOOLS (PRIMARY SECTION),114.13127,22.27014,PRIMARY
HONG KONG RED CROSS HOSPITAL SCHOOLS (PRIMARY SECTION),114.23643,22.2693,PRIMARY
MENG TAK CATHOLIC SCHOOL,114.23619,22.26835,PRIMARY
KENNEDY SCHOOL,114.12526,22.26816,PRIMARY
LYC'EE FRANCAIS INTERNATIONAL (FRENCH INTERNATIONAL SCHOOL),114.23623,22.26747,PRIMARY
PO KOK PRIMARY SCHOOL,114.18516,22.26743,PRIMARY
EBENEZER NEW HOPE SCHOOL (PRIMARY SECTION),114.13175,22.26738,PRIMARY
EBENEZER SCHOOL (PRIMARY SECTION),114.13175,22.26738,PRIMARY
PEAK SCHOOL,114.15282,22.26737,PRIMARY
THE EVANGELICAL LUTHERAN CHURCH OF HONG KONG FAITH LOVE LUTHERAN SCHOOL,114.24219,22.26663,PRIMARY
MUI WO SCHOOL,113.98987,22.2664,PRIMARY
PRECIOUS BLOOD PRIMARY SCHOOL,114.18802,22.26633,PRIMARY
HKUGA PRIMARY SCHOOL,114.23959,22.26567,PRIMARY
BRADBURY SCHOOL,114.17976,22.26557,PRIMARY
GERMAN SWISS INTERNATIONAL SCHOOL,114.16049,22.26549,PRIMARY
GERMAN SWISS INTERNATIONAL SCHOOL,114.16049,22.26549,PRIMARY
S.K.H. CHAI WAN ST. MICHAEL'S PRIMARY SCHOOL,114.24337,22.26539,PRIMARY
LYC'EE FRANCAIS INTERNATIONAL (FRENCH INTERNATIONAL SCHOOL),114.1913,22.26477,PRIMARY
HON WAH COLLEGE,114.24996,22.26476,PRIMARY
SILVERMINE BAY SCHOOL,114.00067,22.26476,PRIMARY
PUI KIU PRIMARY SCHOOL,114.25008,22.2642,PRIMARY
ROSARYHILL SCHOOL,114.18269,22.26392,PRIMARY
ST. PAUL'S PRIMARY CATHOLIC SCHOOL,114.2326,22.26391,PRIMARY
THE INDEPENDENT SCHOOLS FOUNDATION ACADEMY,114.12995,22.26331,PRIMARY
MARYMOUNT PRIMARY SCHOOL,114.19054,22.26294,PRIMARY
THE SALVATION ARMY CENTALINE CHARITY FUND SCHOOL,114.23747,22.26203,PRIMARY
HONGKONG JAPANESE SCHOOL,114.19075,22.26184,PRIMARY
HONG CHI LIONS MORNINGHILL SCHOOL (PRIMARY SECTION),114.19106,22.2616,PRIMARY
ROTARY CLUB OF HONG KONG ISLAND WEST HONG CHI MORNINGHOPE SCHOOL (PRIMARY SECTION),114.23218,22.2614,PRIMARY
GERMAN SWISS INTERNATIONAL SCHOOL,114.13669,22.2607,PRIMARY
S.K.H. CHI FU CHI NAM PRIMARY SCHOOL,114.13876,22.25687,PRIMARY
THE CHURCH OF CHRIST IN CHINA TAI O PRIMARY SCHOOL,113.86167,22.25436,PRIMARY
ST. PAUL'S COLLEGE PRIMARY SCHOOL,114.13829,22.25399,PRIMARY
TUNG WAH GROUP OF HOSPITALS HOK SHAN SCHOOL,114.13806,22.25265,PRIMARY
KELLETT SCHOOL,114.13955,22.25244,PRIMARY
ST. PAUL'S CO-EDUCATIONAL COLLEGE PRIMARY SCHOOL,114.17739,22.25239,PRIMARY
PRECIOUS BLOOD PRIMARY SCHOOL (WAH FU ESTATE),114.1344,22.25236,PRIMARY
TUNG WAH GROUP OF HOSPITALS TSUI TSIN TONG SCHOOL (PRIMARY SECTION),114.13445,22.25213,PRIMARY
S.K.H. TIN WAN CHI NAM PRIMARY SCHOOL,114.15112,22.25184,PRIMARY
WYCOMBE ABBEY SCHOOL HONG KONG,114.14959,22.25095,PRIMARY
ABERDEEN ST PETER'S CATHOLIC PRIMARY SCHOOL,114.15777,22.25073,PRIMARY
ISLAND ROAD GOVERNMENT PRIMARY SCHOOL,114.15513,22.25011,PRIMARY
PUI TAK CANOSSIAN PRIMARY SCHOOL,114.15578,22.24919,PRIMARY
HAN ACADEMY,114.16566,22.24849,PRIMARY
THE HARBOUR SCHOOL,114.14864,22.24504,PRIMARY
SINGAPORE INTERNATIONAL SCHOOL (HONG KONG),114.16721,22.24474,PRIMARY
PRECIOUS BLOOD PRIMARY SCHOOL (SOUTH HORIZONS),114.1487,22.24393,PRIMARY
LANTAU INTERNATIONAL SCHOOL,113.97841,22.24389,PRIMARY
HONG KONG SOUTHERN DISTRICT GOVERNMENT PRIMARY SCHOOL,114.15045,22.24348,PRIMARY
THE HARBOUR SCHOOL,114.15323,22.24341,PRIMARY
BUI O PUBLIC SCHOOL,113.9762,22.24301,PRIMARY
MARYCOVE SCHOOL (PRIMARY SECTION),114.16688,22.24295,PRIMARY
CANADIAN INTERNATIONAL SCHOOL,114.16688,22.24251,PRIMARY
ST. PETER'S CATHOLIC PRIMARY SCHOOL,114.15655,22.24231,PRIMARY
VICTORIA SHANGHAI ACADEMY,114.16652,22.24156,PRIMARY
APLICHAU KAIFONG PRIMARY SCHOOL,114.15409,22.24049,PRIMARY
HONG KONG INTERNATIONAL SCHOOL,114.20115,22.23908,PRIMARY
LANTAU INTERNATIONAL SCHOOL,113.9586,22.23495,PRIMARY
LANTAU INTERNATIONAL SCHOOL,113.93199,22.22861,PRIMARY
NORTHERN LAMMA SCHOOL,114.11367,22.2257,PRIMARY
THE INTERNATIONAL MONTESSORI SCHOOL - AN IMEF SCHOOL,114.20925,22.21949,PRIMARY
ST. STEPHEN'S COLLEGE PREPARATORY SCHOOL,114.21575,22.21239,PRIMARY
KWOK MAN SCHOOL,114.02911,22.21066,PRIMARY
CHEUNG CHAU SACRED HEART SCHOOL,114.03017,22.20976,PRIMARY
THE CHURCH OF CHRIST IN CHINA CHEUNG CHAU CHURCH KAM KONG PRIMARY SCHOOL,114.02822,22.2036,PRIMARY
